{
  "type": "FeatureCollection",
  "features": [
    {
      "type": "Feature",
      "properties": {
        "location": "Northview High School",
        "objectid": "206",
        "precinct": "JC06",
        "proposal": null,
        "status": "approved",
        "retirestatus": "active",
        "address": "10625 Parsons Road",
        "featureid": null
      },
      "geometry": {
        "type": "Point",
        "coordinates": [
          -84.183429150907,
          34.039667550725
        ]
      }
    },
    {
      "type": "Feature",
      "properties": {
        "location": "Hoyt Smith Center",
        "objectid": "838",
        "precinct": "HP01",
        "proposal": "25/17",
        "status": "approved",
        "retirestatus": "active",
        "address": "3444 N Fulton Ave",
        "featureid": null
      },
      "geometry": {
        "type": "Point",
        "coordinates": [
          -84.407983292383,
          33.659858649768
        ]
      }
    },
    {
      "type": "Feature",
      "properties": {
        "location": "Berean Seventh Day Advent. Church",
        "objectid": "161",
        "precinct": "10F",
        "proposal": null,
        "status": "approved",
        "retirestatus": "active",
        "address": "291 Hamilton E Holmes Dr",
        "featureid": null
      },
      "geometry": {
        "type": "Point",
        "coordinates": [
          -84.469815044635,
          33.763515998736
        ]
      }
    },
    {
      "type": "Feature",
      "properties": {
        "location": "Liberty Baptist Church",
        "objectid": "1073",
        "precinct": "05D",
        "proposal": null,
        "status": "approved",
        "retirestatus": "active",
        "address": "395 Chamberlain St Se",
        "featureid": null
      },
      "geometry": {
        "type": "Point",
        "coordinates": [
          -84.374501965309,
          33.753484330697
        ]
      }
    },
    {
      "type": "Feature",
      "properties": {
        "location": "Ralph Bunche Middle School",
        "objectid": "716",
        "precinct": "11B",
        "proposal": "8/15",
        "status": "approved",
        "retirestatus": "active",
        "address": "1925 Niskey Lake Rd Sw",
        "featureid": null
      },
      "geometry": {
        "type": "Point",
        "coordinates": [
          -84.53006179746,
          33.701593450852
        ]
      }
    },
    {
      "type": "Feature",
      "properties": {
        "location": "Mimosa Elementary School",
        "objectid": "582",
        "precinct": "RW07A",
        "proposal": "4/14R",
        "status": "approved",
        "retirestatus": "active",
        "address": "1550 Warsaw Rd",
        "featureid": null
      },
      "geometry": {
        "type": "Point",
        "coordinates": [
          -84.330731826901,
          34.037011799781
        ]
      }
    },
    {
      "type": "Feature",
      "properties": {
        "location": "Grove Park Recreation Center",
        "objectid": "723",
        "precinct": "09I",
        "proposal": "23/15",
        "status": "approved",
        "retirestatus": "active",
        "address": "750 Francis Pl Nw",
        "featureid": null
      },
      "geometry": {
        "type": "Point",
        "coordinates": [
          -84.438547375286,
          33.775113026089
        ]
      }
    },
    {
      "type": "Feature",
      "properties": {
        "location": "Benteen Elem School",
        "objectid": "197",
        "precinct": "01T",
        "proposal": null,
        "status": "approved",
        "retirestatus": "active",
        "address": "200 Cassanova St",
        "featureid": null
      },
      "geometry": {
        "type": "Point",
        "coordinates": [
          -84.364483869362,
          33.716629262351
        ]
      }
    },
    {
      "type": "Feature",
      "properties": {
        "location": "Park Tavern",
        "objectid": "1078",
        "precinct": "02L1",
        "proposal": null,
        "status": "approved",
        "retirestatus": "active",
        "address": "500 10th St NE",
        "featureid": null
      },
      "geometry": {
        "type": "Point",
        "coordinates": [
          -84.369294505162,
          33.782011275518
        ]
      }
    },
    {
      "type": "Feature",
      "properties": {
        "location": "Wolf Creek Library",
        "objectid": "800",
        "precinct": "SC01A",
        "proposal": "5/17",
        "status": "approved",
        "retirestatus": "active",
        "address": "3100 Enon Rd Sw",
        "featureid": null
      },
      "geometry": {
        "type": "Point",
        "coordinates": [
          -84.574605742462,
          33.672712209988
        ]
      }
    },
    {
      "type": "Feature",
      "properties": {
        "location": "Hammond Park Gym",
        "objectid": "641",
        "precinct": "SS07C",
        "proposal": "27/14",
        "status": "approved",
        "retirestatus": "active",
        "address": "705 Hammond Drive Ne",
        "featureid": null
      },
      "geometry": {
        "type": "Point",
        "coordinates": [
          -84.361400828697,
          33.918789879368
        ]
      }
    },
    {
      "type": "Feature",
      "properties": {
        "location": "Alpharetta Crabapple Government Center",
        "objectid": "457",
        "precinct": "AP04B",
        "proposal": "288/12R",
        "status": "approved",
        "retirestatus": "active",
        "address": "12624 Broadwell Rd",
        "featureid": null
      },
      "geometry": {
        "type": "Point",
        "coordinates": [
          -84.339485815035,
          34.090060740117
        ]
      }
    },
    {
      "type": "Feature",
      "properties": {
        "location": "East Point First Mallalieu UMC",
        "objectid": "1016",
        "precinct": "EP01A",
        "proposal": "4/20",
        "status": "approved",
        "retirestatus": "active",
        "address": "2651 Church St",
        "featureid": null
      },
      "geometry": {
        "type": "Point",
        "coordinates": [
          -84.44171360809,
          33.68276410781
        ]
      }
    },
    {
      "type": "Feature",
      "properties": {
        "location": "Messiah Lutheran Church",
        "objectid": "697",
        "precinct": "JC04A",
        "proposal": "9/15",
        "status": "approved",
        "retirestatus": "active",
        "address": "4765 Kimball Bridge Road",
        "featureid": null
      },
      "geometry": {
        "type": "Point",
        "coordinates": [
          -84.220679412967,
          34.062408698573
        ]
      }
    },
    {
      "type": "Feature",
      "properties": {
        "location": "Christian City Welcome Center",
        "objectid": "968",
        "precinct": "UC031",
        "proposal": "19/19",
        "status": "approved",
        "retirestatus": "active",
        "address": "7345 Red Oak Rd",
        "featureid": null
      },
      "geometry": {
        "type": "Point",
        "coordinates": [
          -84.521485867263,
          33.555810273942
        ]
      }
    },
    {
      "type": "Feature",
      "properties": {
        "location": "North Annex",
        "objectid": "740",
        "precinct": "SS19A",
        "proposal": "36/15",
        "status": "approved",
        "retirestatus": "active",
        "address": "7741 Roswell Rd",
        "featureid": null
      },
      "geometry": {
        "type": "Point",
        "coordinates": [
          -84.362043139558,
          33.965596023275
        ]
      }
    },
    {
      "type": "Feature",
      "properties": {
        "location": "Banneker High School",
        "objectid": "636",
        "precinct": "SC08E",
        "proposal": "25/14",
        "status": "approved",
        "retirestatus": "active",
        "address": "6015 Feldwood Rd",
        "featureid": null
      },
      "geometry": {
        "type": "Point",
        "coordinates": [
          -84.517019909117,
          33.592812986385
        ]
      }
    },
    {
      "type": "Feature",
      "properties": {
        "location": "Peachtree Hills Recreation",
        "objectid": "602",
        "precinct": "07E",
        "proposal": "8/14",
        "status": "approved",
        "retirestatus": "active",
        "address": "308 Peachtree Hills Ave Ne",
        "featureid": null
      },
      "geometry": {
        "type": "Point",
        "coordinates": [
          -84.37770855825,
          33.818209138861
        ]
      }
    },
    {
      "type": "Feature",
      "properties": {
        "location": "Mimosa Elementary School",
        "objectid": "583",
        "precinct": "RW07B",
        "proposal": "4/14R",
        "status": "approved",
        "retirestatus": "active",
        "address": "1550 Warsaw Rd",
        "featureid": null
      },
      "geometry": {
        "type": "Point",
        "coordinates": [
          -84.330731826901,
          34.037011799781
        ]
      }
    },
    {
      "type": "Feature",
      "properties": {
        "location": "FanPlex",
        "objectid": "1015",
        "precinct": "01G",
        "proposal": "2/20",
        "status": "approved",
        "retirestatus": "active",
        "address": "768 Hank Aaron Dr SE",
        "featureid": null
      },
      "geometry": {
        "type": "Point",
        "coordinates": [
          -84.387686685648,
          33.734118427872
        ]
      }
    },
    {
      "type": "Feature",
      "properties": {
        "location": "Heard Ferry Elementary School",
        "objectid": "1014",
        "precinct": "SS16",
        "proposal": "3/20",
        "status": "approved",
        "retirestatus": "active",
        "address": "6151 Powers Ferry Rd NW",
        "featureid": null
      },
      "geometry": {
        "type": "Point",
        "coordinates": [
          -84.426374029485,
          33.909735314684
        ]
      }
    },
    {
      "type": "Feature",
      "properties": {
        "location": "Chattahoochee Hills City Hall",
        "objectid": "611",
        "precinct": "CH05",
        "proposal": "13/14",
        "status": "approved",
        "retirestatus": "active",
        "address": "6505 Rico Rd",
        "featureid": null
      },
      "geometry": {
        "type": "Point",
        "coordinates": [
          -84.769076353898,
          33.578938311747
        ]
      }
    },
    {
      "type": "Feature",
      "properties": {
        "location": "East Point First Mallalieu UMC",
        "objectid": "1017",
        "precinct": "EP01B",
        "proposal": "4/20",
        "status": "approved",
        "retirestatus": "active",
        "address": "2651 Church St",
        "featureid": null
      },
      "geometry": {
        "type": "Point",
        "coordinates": [
          -84.44171360809,
          33.68276410781
        ]
      }
    },
    {
      "type": "Feature",
      "properties": {
        "location": "Dobbs Elementary School",
        "objectid": "113",
        "precinct": "01S",
        "proposal": "06/10",
        "status": "approved",
        "retirestatus": "active",
        "address": "2025 Jonesboro Rd Se",
        "featureid": null
      },
      "geometry": {
        "type": "Point",
        "coordinates": [
          -84.372343206358,
          33.697987204589
        ]
      }
    },
    {
      "type": "Feature",
      "properties": {
        "location": "East Roswell Library",
        "objectid": "713",
        "precinct": "RW20",
        "proposal": "21/15",
        "status": "approved",
        "retirestatus": "active",
        "address": "2301 Holcomb Bridge Road",
        "featureid": null
      },
      "geometry": {
        "type": "Point",
        "coordinates": [
          -84.293901009775,
          34.003086221142
        ]
      }
    },
    {
      "type": "Feature",
      "properties": {
        "location": "Christian City - Sparks Auditorium",
        "objectid": "860",
        "precinct": "UC035",
        "proposal": "37/17",
        "status": "approved",
        "retirestatus": "active",
        "address": "7290 Lester Rd",
        "featureid": null
      },
      "geometry": {
        "type": "Point",
        "coordinates": [
          -84.524301315162,
          33.555176921099
        ]
      }
    },
    {
      "type": "Feature",
      "properties": {
        "location": "1st Baptist Ch. Sandy Springs",
        "objectid": "468",
        "precinct": "SS29A",
        "proposal": "294/12R, 9/20",
        "status": "approved",
        "retirestatus": "proposed",
        "address": "650 Mt Vernon Hwy",
        "featureid": null
      },
      "geometry": {
        "type": "Point",
        "coordinates": [
          -84.364843564888,
          33.927882674183
        ]
      }
    },
    {
      "type": "Feature",
      "properties": {
        "location": "1st Baptist Church Of Roswell",
        "objectid": "238",
        "precinct": "RW11B",
        "proposal": null,
        "status": "approved",
        "retirestatus": "active",
        "address": "710 Mimosa Blvd",
        "featureid": null
      },
      "geometry": {
        "type": "Point",
        "coordinates": [
          -84.363649467363,
          34.017703443671
        ]
      }
    },
    {
      "type": "Feature",
      "properties": {
        "location": "Cleveland Avenue School",
        "objectid": "917",
        "precinct": "12E1",
        "proposal": "17/18",
        "status": "approved",
        "retirestatus": "active",
        "address": "2672 Old Hapeville Rd",
        "featureid": null
      },
      "geometry": {
        "type": "Point",
        "coordinates": [
          -84.393988520394,
          33.682425546665
        ]
      }
    },
    {
      "type": "Feature",
      "properties": {
        "location": "Etris Community Center",
        "objectid": "447",
        "precinct": "UC02B",
        "proposal": "107/12R",
        "status": "approved",
        "retirestatus": "active",
        "address": "5285 Lakeside Dr",
        "featureid": null
      },
      "geometry": {
        "type": "Point",
        "coordinates": [
          -84.557859975068,
          33.587318975093
        ]
      }
    },
    {
      "type": "Feature",
      "properties": {
        "location": "First Baptist Church of Fairburn",
        "objectid": "622",
        "precinct": "FA01B",
        "proposal": "16/14",
        "status": "approved",
        "retirestatus": "active",
        "address": "23 Malone St SE",
        "featureid": null
      },
      "geometry": {
        "type": "Point",
        "coordinates": [
          -84.582361507971,
          33.564193823684
        ]
      }
    },
    {
      "type": "Feature",
      "properties": {
        "location": "Camp Truitt Senior Center",
        "objectid": "589",
        "precinct": "CP07D",
        "proposal": "8/14R",
        "status": "approved",
        "retirestatus": "active",
        "address": "4320 Herschel Rd",
        "featureid": null
      },
      "geometry": {
        "type": "Point",
        "coordinates": [
          -84.471947246677,
          33.637606082988
        ]
      }
    },
    {
      "type": "Feature",
      "properties": {
        "location": "Peachtree Christian Church",
        "objectid": "672",
        "precinct": "06L2",
        "proposal": "46/14",
        "status": "approved",
        "retirestatus": "active",
        "address": "1580 Peachtree Street Nw",
        "featureid": null
      },
      "geometry": {
        "type": "Point",
        "coordinates": [
          -84.389463176786,
          33.797208894837
        ]
      }
    },
    {
      "type": "Feature",
      "properties": {
        "location": "Findley Oaks Elementary School",
        "objectid": "771",
        "precinct": "JC03A",
        "proposal": "22/16",
        "status": "approved",
        "retirestatus": "active",
        "address": "5880 Findley Chase Drive",
        "featureid": null
      },
      "geometry": {
        "type": "Point",
        "coordinates": [
          -84.186137063128,
          34.060696241763
        ]
      }
    },
    {
      "type": "Feature",
      "properties": {
        "location": "Central Park Recreation Center",
        "objectid": "776",
        "precinct": "02F1",
        "proposal": "26/16",
        "status": "approved",
        "retirestatus": "active",
        "address": "400 Merritts Ave NE",
        "featureid": null
      },
      "geometry": {
        "type": "Point",
        "coordinates": [
          -84.374736770686,
          33.768896042654
        ]
      }
    },
    {
      "type": "Feature",
      "properties": {
        "location": "Inman Middle School",
        "objectid": "201",
        "precinct": "06J",
        "proposal": null,
        "status": "approved",
        "retirestatus": "active",
        "address": "774 Virginia Ave",
        "featureid": null
      },
      "geometry": {
        "type": "Point",
        "coordinates": [
          -84.362261988522,
          33.782775698335
        ]
      }
    },
    {
      "type": "Feature",
      "properties": {
        "location": "Antioch Baptist Ch Family Cntr",
        "objectid": "584",
        "precinct": "03P1A",
        "proposal": "5/14R",
        "status": "approved",
        "retirestatus": "active",
        "address": "540 Cameron M Alexander Blvd Nw",
        "featureid": null
      },
      "geometry": {
        "type": "Point",
        "coordinates": [
          -84.40519390118,
          33.768087751177
        ]
      }
    },
    {
      "type": "Feature",
      "properties": {
        "location": "Parkside Elem School",
        "objectid": "108",
        "precinct": "01A",
        "proposal": null,
        "status": "approved",
        "retirestatus": "active",
        "address": "685 Mercer St Se",
        "featureid": null
      },
      "geometry": {
        "type": "Point",
        "coordinates": [
          -84.364827664128,
          33.73554000425
        ]
      }
    },
    {
      "type": "Feature",
      "properties": {
        "location": "Epworth United Methodist Church",
        "objectid": "573",
        "precinct": "02I",
        "proposal": null,
        "status": "approved",
        "retirestatus": "active",
        "address": "1561 Mclendon Ave Ne",
        "featureid": null
      },
      "geometry": {
        "type": "Point",
        "coordinates": [
          -84.335733572633,
          33.764934905261
        ]
      }
    },
    {
      "type": "Feature",
      "properties": {
        "location": "FanPlex",
        "objectid": "1035",
        "precinct": "01D",
        "proposal": "17/20",
        "status": "approved",
        "retirestatus": "active",
        "address": "768 Hank Aaron Dr SE",
        "featureid": null
      },
      "geometry": {
        "type": "Point",
        "coordinates": [
          -84.387686685648,
          33.734118427872
        ]
      }
    },
    {
      "type": "Feature",
      "properties": {
        "location": "Independence High School",
        "objectid": "1056",
        "precinct": "RW03",
        "proposal": "25/20",
        "status": "approved",
        "retirestatus": "active",
        "address": "791 Mimosa Blvd",
        "featureid": null
      },
      "geometry": {
        "type": "Point",
        "coordinates": [
          -84.362919377294,
          34.019612190545
        ]
      }
    },
    {
      "type": "Feature",
      "properties": {
        "location": "Perkerson Park Rec Center",
        "objectid": "1058",
        "precinct": "12G",
        "proposal": "30/20",
        "status": "approved",
        "retirestatus": "active",
        "address": "770 Deckner Ave",
        "featureid": null
      },
      "geometry": {
        "type": "Point",
        "coordinates": [
          -84.4128532079,
          33.713666988341
        ]
      }
    },
    {
      "type": "Feature",
      "properties": {
        "location": "Central Park Recreation Center",
        "objectid": "1046",
        "precinct": "05F",
        "proposal": "9/20",
        "status": "approved",
        "retirestatus": "active",
        "address": "400 Merritts Ave NE",
        "featureid": null
      },
      "geometry": {
        "type": "Point",
        "coordinates": [
          -84.374736770686,
          33.768896042654
        ]
      }
    },
    {
      "type": "Feature",
      "properties": {
        "location": "Hillside Elem School",
        "objectid": "1059",
        "precinct": "JC18",
        "proposal": "33/20",
        "status": "approved",
        "retirestatus": "active",
        "address": "9250 Scott Rd",
        "featureid": null
      },
      "geometry": {
        "type": "Point",
        "coordinates": [
          -84.296027922087,
          34.009948066931
        ]
      }
    },
    {
      "type": "Feature",
      "properties": {
        "location": "Northview High School",
        "objectid": "1054",
        "precinct": "JC02",
        "proposal": "32/20",
        "status": "approved",
        "retirestatus": "active",
        "address": "10625 Parsons Road",
        "featureid": null
      },
      "geometry": {
        "type": "Point",
        "coordinates": [
          -84.183429150907,
          34.039667550725
        ]
      }
    },
    {
      "type": "Feature",
      "properties": {
        "location": "Elkins Pointe Middle School",
        "objectid": "852",
        "precinct": "RW05",
        "proposal": "33/17",
        "status": "approved",
        "retirestatus": "active",
        "address": "11290 Elkins Road",
        "featureid": null
      },
      "geometry": {
        "type": "Point",
        "coordinates": [
          -84.334523288851,
          34.054313572926
        ]
      }
    },
    {
      "type": "Feature",
      "properties": {
        "location": "Lake Forest Elementary School",
        "objectid": "99",
        "precinct": "SS03",
        "proposal": "28/11",
        "status": "approved",
        "retirestatus": "active",
        "address": "5920 Sandy Springs Cir",
        "featureid": null
      },
      "geometry": {
        "type": "Point",
        "coordinates": [
          -84.383494859486,
          33.917002790449
        ]
      }
    },
    {
      "type": "Feature",
      "properties": {
        "location": "Liberty Baptist Church",
        "objectid": "1071",
        "precinct": "02B",
        "proposal": null,
        "status": "approved",
        "retirestatus": "active",
        "address": "395 Chamberlain St Se",
        "featureid": null
      },
      "geometry": {
        "type": "Point",
        "coordinates": [
          -84.374501965309,
          33.753484330697
        ]
      }
    },
    {
      "type": "Feature",
      "properties": {
        "location": "Abbotts Hill Elementary School",
        "objectid": "80",
        "precinct": "JC05",
        "proposal": null,
        "status": "approved",
        "retirestatus": "active",
        "address": "5575 Abbotts Bridge Road",
        "featureid": null
      },
      "geometry": {
        "type": "Point",
        "coordinates": [
          -84.19575210154,
          34.054992701021
        ]
      }
    },
    {
      "type": "Feature",
      "properties": {
        "location": "Liberty Baptist Church",
        "objectid": "590",
        "precinct": "05C",
        "proposal": "1/14",
        "status": "approved",
        "retirestatus": "active",
        "address": "395 Chamberlain St Se",
        "featureid": null
      },
      "geometry": {
        "type": "Point",
        "coordinates": [
          -84.374501965309,
          33.753484330697
        ]
      }
    },
    {
      "type": "Feature",
      "properties": {
        "location": "Alpharetta Crabapple Government Center",
        "objectid": "696",
        "precinct": "AP06",
        "proposal": "13/15",
        "status": "approved",
        "retirestatus": "active",
        "address": "12624 Broadwell Rd",
        "featureid": null
      },
      "geometry": {
        "type": "Point",
        "coordinates": [
          -84.339485815035,
          34.090060740117
        ]
      }
    },
    {
      "type": "Feature",
      "properties": {
        "location": "Solid Rock Pentecostal Church",
        "objectid": "407",
        "precinct": "SC19A",
        "proposal": "31/12R",
        "status": "approved",
        "retirestatus": "active",
        "address": "4707 Washington Rd",
        "featureid": null
      },
      "geometry": {
        "type": "Point",
        "coordinates": [
          -84.492097566308,
          33.627690452734
        ]
      }
    },
    {
      "type": "Feature",
      "properties": {
        "location": "Webb Bridge Middle School",
        "objectid": "941",
        "precinct": "AP09A",
        "proposal": "30/18",
        "status": "approved",
        "retirestatus": "active",
        "address": "4455 Webb Bridge Rd",
        "featureid": null
      },
      "geometry": {
        "type": "Point",
        "coordinates": [
          -84.229621916687,
          34.066808787239
        ]
      }
    },
    {
      "type": "Feature",
      "properties": {
        "location": "Louise Watley Library at Southeast Atlanta",
        "objectid": "950",
        "precinct": "12S",
        "proposal": "4/19",
        "status": "approved",
        "retirestatus": "active",
        "address": "1463 Pryor Road Sw",
        "featureid": null
      },
      "geometry": {
        "type": "Point",
        "coordinates": [
          -84.393804193295,
          33.71458797053
        ]
      }
    },
    {
      "type": "Feature",
      "properties": {
        "location": "Tracey Wyatt Recreation Center",
        "objectid": "691",
        "precinct": "CP083",
        "proposal": "15/15R",
        "status": "approved",
        "retirestatus": "active",
        "address": "2300 Godby Rd",
        "featureid": null
      },
      "geometry": {
        "type": "Point",
        "coordinates": [
          -84.464857939013,
          33.615944650195
        ]
      }
    },
    {
      "type": "Feature",
      "properties": {
        "location": "Grove Park Recreation Center",
        "objectid": "722",
        "precinct": "03B",
        "proposal": "23/15",
        "status": "approved",
        "retirestatus": "active",
        "address": "750 Francis Pl Nw",
        "featureid": null
      },
      "geometry": {
        "type": "Point",
        "coordinates": [
          -84.438547375286,
          33.775113026089
        ]
      }
    },
    {
      "type": "Feature",
      "properties": {
        "location": "Central United Methodist Ch",
        "objectid": "832",
        "precinct": "04J",
        "proposal": "11/13R, 22/17",
        "status": "approved",
        "retirestatus": "active",
        "address": "501 Mitchell St",
        "featureid": null
      },
      "geometry": {
        "type": "Point",
        "coordinates": [
          -84.403745232243,
          33.754015979091
        ]
      }
    },
    {
      "type": "Feature",
      "properties": {
        "location": "Grant, Bitsy Tennis Center",
        "objectid": "494",
        "precinct": "08K",
        "proposal": "7/13new, 60/17",
        "status": "approved",
        "retirestatus": "proposed",
        "address": "2125 Northside Dr",
        "featureid": null
      },
      "geometry": {
        "type": "Point",
        "coordinates": [
          -84.407467239938,
          33.813391977865
        ]
      }
    },
    {
      "type": "Feature",
      "properties": {
        "location": "Dobbs Elementary School",
        "objectid": "682",
        "precinct": "01C",
        "proposal": "1/15R",
        "status": "approved",
        "retirestatus": "active",
        "address": "2025 Jonesboro Rd Se",
        "featureid": null
      },
      "geometry": {
        "type": "Point",
        "coordinates": [
          -84.372343206358,
          33.697987204589
        ]
      }
    },
    {
      "type": "Feature",
      "properties": {
        "location": "Brookview Elememtary Sch",
        "objectid": "787",
        "precinct": "EP04B",
        "proposal": "28/16",
        "status": "approved",
        "retirestatus": "active",
        "address": "3250 Hammarskjold Dr",
        "featureid": null
      },
      "geometry": {
        "type": "Point",
        "coordinates": [
          -84.494766697465,
          33.647348055631
        ]
      }
    },
    {
      "type": "Feature",
      "properties": {
        "location": "Bible Way Ministries",
        "objectid": "352",
        "precinct": "01P",
        "proposal": "226/12R",
        "status": "approved",
        "retirestatus": "active",
        "address": "894 Constitution Rd",
        "featureid": null
      },
      "geometry": {
        "type": "Point",
        "coordinates": [
          -84.360229256609,
          33.69333302502
        ]
      }
    },
    {
      "type": "Feature",
      "properties": {
        "location": "Therrell, D.M. High School",
        "objectid": "1067",
        "precinct": "11R",
        "proposal": null,
        "status": "approved",
        "retirestatus": "active",
        "address": "3099 Panther Trail Sw",
        "featureid": null
      },
      "geometry": {
        "type": "Point",
        "coordinates": [
          -84.489913941636,
          33.699125189731
        ]
      }
    },
    {
      "type": "Feature",
      "properties": {
        "location": "Camp Truitt Senior Center",
        "objectid": "687",
        "precinct": "CP06B",
        "proposal": "14/15R",
        "status": "approved",
        "retirestatus": "active",
        "address": "4320 Herschel Rd",
        "featureid": null
      },
      "geometry": {
        "type": "Point",
        "coordinates": [
          -84.471946584289,
          33.637608382078
        ]
      }
    },
    {
      "type": "Feature",
      "properties": {
        "location": "Johns Creek Environmental Campus",
        "objectid": "817",
        "precinct": "RW21",
        "proposal": "15/17",
        "status": "approved",
        "retirestatus": "active",
        "address": "8100 Holcomb Bridge Rd",
        "featureid": null
      },
      "geometry": {
        "type": "Point",
        "coordinates": [
          -84.266692023534,
          33.977343821315
        ]
      }
    },
    {
      "type": "Feature",
      "properties": {
        "location": "Park Tavern",
        "objectid": "1074",
        "precinct": "02J",
        "proposal": null,
        "status": "approved",
        "retirestatus": "active",
        "address": "500 10th St NE",
        "featureid": null
      },
      "geometry": {
        "type": "Point",
        "coordinates": [
          -84.369294505162,
          33.782011275518
        ]
      }
    },
    {
      "type": "Feature",
      "properties": {
        "location": "College Park Auditorium",
        "objectid": "883",
        "precinct": "CP04A",
        "proposal": "49/17",
        "status": "approved",
        "retirestatus": "active",
        "address": "3631 Main Street",
        "featureid": null
      },
      "geometry": {
        "type": "Point",
        "coordinates": [
          -84.449267388548,
          33.655798123373
        ]
      }
    },
    {
      "type": "Feature",
      "properties": {
        "location": "Camp Truitt Senior Center",
        "objectid": "369",
        "precinct": "CP07B",
        "proposal": "33/11, 239/12R",
        "status": "approved",
        "retirestatus": "active",
        "address": "4320 Herschel Rd",
        "featureid": null
      },
      "geometry": {
        "type": "Point",
        "coordinates": [
          -84.471947246677,
          33.637606082988
        ]
      }
    },
    {
      "type": "Feature",
      "properties": {
        "location": "Morris Brandon Primary Ctr. School",
        "objectid": "1068",
        "precinct": "09F",
        "proposal": null,
        "status": "approved",
        "retirestatus": "active",
        "address": "2845 Margaret Mitchell Dr",
        "featureid": null
      },
      "geometry": {
        "type": "Point",
        "coordinates": [
          -84.434703709565,
          33.83389574717
        ]
      }
    },
    {
      "type": "Feature",
      "properties": {
        "location": "North River Baptist Church",
        "objectid": "24",
        "precinct": "RW19",
        "proposal": "22/14, 23/14, 30/15",
        "status": "approved",
        "retirestatus": "active",
        "address": "12090 Hardscrabble Road",
        "featureid": null
      },
      "geometry": {
        "type": "Point",
        "coordinates": [
          -84.363911571324,
          34.074462950745
        ]
      }
    },
    {
      "type": "Feature",
      "properties": {
        "location": "First Iconium Baptist Church",
        "objectid": "318",
        "precinct": "05E",
        "proposal": null,
        "status": "approved",
        "retirestatus": "active",
        "address": "542 Moreland Ave Se",
        "featureid": null
      },
      "geometry": {
        "type": "Point",
        "coordinates": [
          -84.349202671171,
          33.739916297379
        ]
      }
    },
    {
      "type": "Feature",
      "properties": {
        "location": "Wolf Creek Library",
        "objectid": "801",
        "precinct": "SC01B",
        "proposal": "5/17",
        "status": "approved",
        "retirestatus": "active",
        "address": "3100 Enon Rd Sw",
        "featureid": null
      },
      "geometry": {
        "type": "Point",
        "coordinates": [
          -84.574605742462,
          33.672712209988
        ]
      }
    },
    {
      "type": "Feature",
      "properties": {
        "location": "Park Tavern",
        "objectid": "1077",
        "precinct": "02A",
        "proposal": null,
        "status": "approved",
        "retirestatus": "active",
        "address": "500 10th St NE",
        "featureid": null
      },
      "geometry": {
        "type": "Point",
        "coordinates": [
          -84.369294505162,
          33.782011275518
        ]
      }
    },
    {
      "type": "Feature",
      "properties": {
        "location": "Peachtree Hills Recreation",
        "objectid": "452",
        "precinct": "07N",
        "proposal": "13/12",
        "status": "approved",
        "retirestatus": "active",
        "address": "308 Peachtree Hills Ave Ne",
        "featureid": null
      },
      "geometry": {
        "type": "Point",
        "coordinates": [
          -84.37770855825,
          33.818209138861
        ]
      }
    },
    {
      "type": "Feature",
      "properties": {
        "location": "Georgia State University - 2nd Floor",
        "objectid": "877",
        "precinct": "AP01E",
        "proposal": "43/17",
        "status": "approved",
        "retirestatus": "active",
        "address": "3775 Brookside Pkwy",
        "featureid": null
      },
      "geometry": {
        "type": "Point",
        "coordinates": [
          -84.253221791906,
          34.060947777661
        ]
      }
    },
    {
      "type": "Feature",
      "properties": {
        "location": "Messiah Lutheran Church",
        "objectid": "698",
        "precinct": "JC04B",
        "proposal": "9/15",
        "status": "approved",
        "retirestatus": "active",
        "address": "4765 Kimball Bridge Road",
        "featureid": null
      },
      "geometry": {
        "type": "Point",
        "coordinates": [
          -84.220679412967,
          34.062408698573
        ]
      }
    },
    {
      "type": "Feature",
      "properties": {
        "location": "FanPlex",
        "objectid": "1066",
        "precinct": "01F",
        "proposal": null,
        "status": "approved",
        "retirestatus": "active",
        "address": "768 Hank Aaron Dr SE",
        "featureid": null
      },
      "geometry": {
        "type": "Point",
        "coordinates": [
          -84.387686685648,
          33.734118427872
        ]
      }
    },
    {
      "type": "Feature",
      "properties": {
        "location": "Christian City Welcome Center",
        "objectid": "966",
        "precinct": "SC211",
        "proposal": "19/19",
        "status": "approved",
        "retirestatus": "active",
        "address": "7345 Red Oak Rd",
        "featureid": null
      },
      "geometry": {
        "type": "Point",
        "coordinates": [
          -84.521485867263,
          33.555810273942
        ]
      }
    },
    {
      "type": "Feature",
      "properties": {
        "location": "Allen Temple AME Church",
        "objectid": "893",
        "precinct": "03A",
        "proposal": "61/17",
        "status": "approved",
        "retirestatus": "active",
        "address": "1625 Joseph E. Boone Blvd Nw",
        "featureid": null
      },
      "geometry": {
        "type": "Point",
        "coordinates": [
          -84.441643747918,
          33.763735877895
        ]
      }
    },
    {
      "type": "Feature",
      "properties": {
        "location": "Ptree Presbyterian Church",
        "objectid": "293",
        "precinct": "08M",
        "proposal": null,
        "status": "approved",
        "retirestatus": "active",
        "address": "3434 Roswell Rd",
        "featureid": null
      },
      "geometry": {
        "type": "Point",
        "coordinates": [
          -84.382718598759,
          33.847704679736
        ]
      }
    },
    {
      "type": "Feature",
      "properties": {
        "location": "Helene S. Mills Senior Center",
        "objectid": "1069",
        "precinct": "02S",
        "proposal": null,
        "status": "approved",
        "retirestatus": "active",
        "address": "515 John Wesley Dobbs Ave NE",
        "featureid": null
      },
      "geometry": {
        "type": "Point",
        "coordinates": [
          -84.370749987514,
          33.759086423532
        ]
      }
    },
    {
      "type": "Feature",
      "properties": {
        "location": "Park Tavern",
        "objectid": "1076",
        "precinct": "06G",
        "proposal": null,
        "status": "approved",
        "retirestatus": "active",
        "address": "500 10th St NE",
        "featureid": null
      },
      "geometry": {
        "type": "Point",
        "coordinates": [
          -84.369294505162,
          33.782011275518
        ]
      }
    },
    {
      "type": "Feature",
      "properties": {
        "location": "Central Park Recreation Center",
        "objectid": "777",
        "precinct": "02F2",
        "proposal": "26/16",
        "status": "approved",
        "retirestatus": "active",
        "address": "400 Merritts Ave NE",
        "featureid": null
      },
      "geometry": {
        "type": "Point",
        "coordinates": [
          -84.374736770686,
          33.768896042654
        ]
      }
    },
    {
      "type": "Feature",
      "properties": {
        "location": "Liberty Baptist Church",
        "objectid": "1072",
        "precinct": "02L2",
        "proposal": null,
        "status": "approved",
        "retirestatus": "active",
        "address": "395 Chamberlain St Se",
        "featureid": null
      },
      "geometry": {
        "type": "Point",
        "coordinates": [
          -84.374501965309,
          33.753484330697
        ]
      }
    },
    {
      "type": "Feature",
      "properties": {
        "location": "St Peters Bapt Church Rec Bldg",
        "objectid": "135",
        "precinct": "04S",
        "proposal": null,
        "status": "approved",
        "retirestatus": "active",
        "address": "1558 Venetian Dr",
        "featureid": null
      },
      "geometry": {
        "type": "Point",
        "coordinates": [
          -84.439757580297,
          33.714431801909
        ]
      }
    },
    {
      "type": "Feature",
      "properties": {
        "location": "Park Tavern",
        "objectid": "1075",
        "precinct": "02K",
        "proposal": null,
        "status": "approved",
        "retirestatus": "active",
        "address": "500 10th St NE",
        "featureid": null
      },
      "geometry": {
        "type": "Point",
        "coordinates": [
          -84.369294505162,
          33.782011275518
        ]
      }
    },
    {
      "type": "Feature",
      "properties": {
        "location": "Simpson Street Church Of Christ",
        "objectid": "124",
        "precinct": "03G",
        "proposal": "22/11",
        "status": "approved",
        "retirestatus": "active",
        "address": "800 Joseph E. Boone Blvd Nw",
        "featureid": null
      },
      "geometry": {
        "type": "Point",
        "coordinates": [
          -84.413463789136,
          33.763126129443
        ]
      }
    },
    {
      "type": "Feature",
      "properties": {
        "location": "Sutton Middle School",
        "objectid": "560",
        "precinct": "08H",
        "proposal": "17/13",
        "status": "approved",
        "retirestatus": "active",
        "address": "2875 Northside Dr",
        "featureid": null
      },
      "geometry": {
        "type": "Point",
        "coordinates": [
          -84.406540052306,
          33.8330383546
        ]
      }
    },
    {
      "type": "Feature",
      "properties": {
        "location": "Camp Truitt Senior Center",
        "objectid": "619",
        "precinct": "CP053",
        "proposal": "14/14",
        "status": "approved",
        "retirestatus": "active",
        "address": "4320 Herschel Rd",
        "featureid": null
      },
      "geometry": {
        "type": "Point",
        "coordinates": [
          -84.471947246677,
          33.637606082988
        ]
      }
    },
    {
      "type": "Feature",
      "properties": {
        "location": "Helene S. Mills Senior Center",
        "objectid": "1070",
        "precinct": "05K",
        "proposal": null,
        "status": "approved",
        "retirestatus": "active",
        "address": "515 John Wesley Dobbs Ave NE",
        "featureid": null
      },
      "geometry": {
        "type": "Point",
        "coordinates": [
          -84.370749987514,
          33.759086423532
        ]
      }
    },
    {
      "type": "Feature",
      "properties": {
        "location": "Sarah Rawson Smith Elem School",
        "objectid": "336",
        "precinct": "07A",
        "proposal": "23/10, 35/10",
        "status": "approved",
        "retirestatus": "active",
        "address": "370 Old Ivy Rd Ne",
        "featureid": null
      },
      "geometry": {
        "type": "Point",
        "coordinates": [
          -84.375321948295,
          33.857646827706
        ]
      }
    },
    {
      "type": "Feature",
      "properties": {
        "location": "Hammond Park Gym",
        "objectid": "639",
        "precinct": "SS07A",
        "proposal": "27/14",
        "status": "approved",
        "retirestatus": "active",
        "address": "705 Hammond Drive Ne",
        "featureid": null
      },
      "geometry": {
        "type": "Point",
        "coordinates": [
          -84.361400828697,
          33.918789879368
        ]
      }
    },
    {
      "type": "Feature",
      "properties": {
        "location": "Saint Mary's Orthodox Church",
        "objectid": "485",
        "precinct": "RW13",
        "proposal": "2/13",
        "status": "approved",
        "retirestatus": "active",
        "address": "1950 Old Alabama Rd",
        "featureid": null
      },
      "geometry": {
        "type": "Point",
        "coordinates": [
          -84.302188817986,
          34.025810123823
        ]
      }
    },
    {
      "type": "Feature",
      "properties": {
        "location": "Pittman Park Rec Center",
        "objectid": "922",
        "precinct": "12K",
        "proposal": "20/18",
        "status": "approved",
        "retirestatus": "active",
        "address": "950 Garibaldi St",
        "featureid": null
      },
      "geometry": {
        "type": "Point",
        "coordinates": [
          -84.399058113669,
          33.72875527635
        ]
      }
    },
    {
      "type": "Feature",
      "properties": {
        "location": "James Orange Park",
        "objectid": "599",
        "precinct": "04G",
        "proposal": "6/14",
        "status": "approved",
        "retirestatus": "active",
        "address": "1305 Oakland Ln",
        "featureid": null
      },
      "geometry": {
        "type": "Point",
        "coordinates": [
          -84.428723958698,
          33.719143007262
        ]
      }
    },
    {
      "type": "Feature",
      "properties": {
        "location": "Camp Truitt Senior Center",
        "objectid": "620",
        "precinct": "CP05B",
        "proposal": "14/14",
        "status": "approved",
        "retirestatus": "active",
        "address": "4320 Herschel Rd",
        "featureid": null
      },
      "geometry": {
        "type": "Point",
        "coordinates": [
          -84.471947246677,
          33.637606082988
        ]
      }
    },
    {
      "type": "Feature",
      "properties": {
        "location": "Brandon, Morris School",
        "objectid": "1050",
        "precinct": "08N1",
        "proposal": "28/20",
        "status": "approved",
        "retirestatus": "active",
        "address": "2741 Howell Mill Rd Nw",
        "featureid": null
      },
      "geometry": {
        "type": "Point",
        "coordinates": [
          -84.416227579325,
          33.829622863203
        ]
      }
    },
    {
      "type": "Feature",
      "properties": {
        "location": "Abernathy Arts Center",
        "objectid": "1064",
        "precinct": "SS05",
        "proposal": "38/20",
        "status": "approved",
        "retirestatus": "active",
        "address": "254 Johnson Ferry Rd",
        "featureid": null
      },
      "geometry": {
        "type": "Point",
        "coordinates": [
          -84.391520156575,
          33.935126030052
        ]
      }
    },
    {
      "type": "Feature",
      "properties": {
        "location": "Antioch Baptist Ch Family Cntr",
        "objectid": "1038",
        "precinct": "04F",
        "proposal": "18/20",
        "status": "approved",
        "retirestatus": "active",
        "address": "540 Cameron M Alexander Blvd Nw",
        "featureid": null
      },
      "geometry": {
        "type": "Point",
        "coordinates": [
          -84.40519390118,
          33.768087751177
        ]
      }
    },
    {
      "type": "Feature",
      "properties": {
        "location": "Burdett Park Gym",
        "objectid": "36",
        "precinct": "SC27",
        "proposal": null,
        "status": "approved",
        "retirestatus": "active",
        "address": "2945 Burdett Rd",
        "featureid": null
      },
      "geometry": {
        "type": "Point",
        "coordinates": [
          -84.483670688748,
          33.595408877818
        ]
      }
    },
    {
      "type": "Feature",
      "properties": {
        "location": "Sandy Springs Middle School",
        "objectid": "562",
        "precinct": "SS15A",
        "proposal": "15/13",
        "status": "approved",
        "retirestatus": "active",
        "address": "8750 Pride Place",
        "featureid": null
      },
      "geometry": {
        "type": "Point",
        "coordinates": [
          -84.339156458044,
          33.996240327902
        ]
      }
    },
    {
      "type": "Feature",
      "properties": {
        "location": "Welcome All Park, Community House",
        "objectid": "650",
        "precinct": "SC17B",
        "proposal": "34/14, 41/14",
        "status": "approved",
        "retirestatus": "active",
        "address": "4255 Will Lee Road",
        "featureid": null
      },
      "geometry": {
        "type": "Point",
        "coordinates": [
          -84.527539176252,
          33.631029690121
        ]
      }
    },
    {
      "type": "Feature",
      "properties": {
        "location": "Woodland Elem. School",
        "objectid": "1061",
        "precinct": "SS04",
        "proposal": "37/20",
        "status": "approved",
        "retirestatus": "active",
        "address": "1130 Spalding Dr",
        "featureid": null
      },
      "geometry": {
        "type": "Point",
        "coordinates": [
          -84.350114028411,
          33.959953056966
        ]
      }
    },
    {
      "type": "Feature",
      "properties": {
        "location": "Banneker High School",
        "objectid": "795",
        "precinct": "SC08G",
        "proposal": "2/17",
        "status": "approved",
        "retirestatus": "active",
        "address": "6015 Feldwood Rd",
        "featureid": null
      },
      "geometry": {
        "type": "Point",
        "coordinates": [
          -84.517019909117,
          33.592812986385
        ]
      }
    },
    {
      "type": "Feature",
      "properties": {
        "location": "Brandon, Morris School",
        "objectid": "1049",
        "precinct": "08D",
        "proposal": "28/20",
        "status": "approved",
        "retirestatus": "active",
        "address": "2741 Howell Mill Rd Nw",
        "featureid": null
      },
      "geometry": {
        "type": "Point",
        "coordinates": [
          -84.416227579325,
          33.829622863203
        ]
      }
    },
    {
      "type": "Feature",
      "properties": {
        "location": "Pittman Park Rec Center",
        "objectid": "520",
        "precinct": "12N",
        "proposal": "98/12R, 13/13R",
        "status": "approved",
        "retirestatus": "active",
        "address": "950 Garibaldi St",
        "featureid": null
      },
      "geometry": {
        "type": "Point",
        "coordinates": [
          -84.399058113669,
          33.72875527635
        ]
      }
    },
    {
      "type": "Feature",
      "properties": {
        "location": "Southwest Regional Library",
        "objectid": "1047",
        "precinct": "SC14A",
        "proposal": "26/20",
        "status": "approved",
        "retirestatus": "active",
        "address": "3665 Cascade Rd",
        "featureid": null
      },
      "geometry": {
        "type": "Point",
        "coordinates": [
          -84.507313312253,
          33.723560161246
        ]
      }
    },
    {
      "type": "Feature",
      "properties": {
        "location": "Atlanta Police Athletic League",
        "objectid": "123",
        "precinct": "03C",
        "proposal": "10/10, 05/11, 31/11, 08/12",
        "status": "approved",
        "retirestatus": "active",
        "address": "120 Anderson Ave Nw",
        "featureid": null
      },
      "geometry": {
        "type": "Point",
        "coordinates": [
          -84.451257182711,
          33.757875722839
        ]
      }
    },
    {
      "type": "Feature",
      "properties": {
        "location": "Tracey Wyatt Recreation Center",
        "objectid": "690",
        "precinct": "CP081",
        "proposal": "15/15R",
        "status": "approved",
        "retirestatus": "active",
        "address": "2300 Godby Rd",
        "featureid": null
      },
      "geometry": {
        "type": "Point",
        "coordinates": [
          -84.464857939013,
          33.615944650195
        ]
      }
    },
    {
      "type": "Feature",
      "properties": {
        "location": "Chattahoochee Hills City Hall",
        "objectid": "607",
        "precinct": "CH02",
        "proposal": "13/14",
        "status": "approved",
        "retirestatus": "active",
        "address": "6505 Rico Rd",
        "featureid": null
      },
      "geometry": {
        "type": "Point",
        "coordinates": [
          -84.769076353898,
          33.578938311747
        ]
      }
    },
    {
      "type": "Feature",
      "properties": {
        "location": "Alpharetta High School",
        "objectid": "842",
        "precinct": "AP12D",
        "proposal": "26/17",
        "status": "approved",
        "retirestatus": "active",
        "address": "3595 Webb Bridge Rd",
        "featureid": null
      },
      "geometry": {
        "type": "Point",
        "coordinates": [
          -84.254761377836,
          34.077950061662
        ]
      }
    },
    {
      "type": "Feature",
      "properties": {
        "location": "Chattahoochee Hills City Hall",
        "objectid": "610",
        "precinct": "CH04B",
        "proposal": "13/14",
        "status": "approved",
        "retirestatus": "active",
        "address": "6505 Rico Rd",
        "featureid": null
      },
      "geometry": {
        "type": "Point",
        "coordinates": [
          -84.769076353898,
          33.578938311747
        ]
      }
    },
    {
      "type": "Feature",
      "properties": {
        "location": "Little 5 Points Comm Center",
        "objectid": "115",
        "precinct": "02E",
        "proposal": null,
        "status": "approved",
        "retirestatus": "active",
        "address": "1083 Austin Ave",
        "featureid": null
      },
      "geometry": {
        "type": "Point",
        "coordinates": [
          -84.352477601134,
          33.76223905766
        ]
      }
    },
    {
      "type": "Feature",
      "properties": {
        "location": "First Baptist Church of Fairburn",
        "objectid": "1043",
        "precinct": "FA01A",
        "proposal": "23/20",
        "status": "approved",
        "retirestatus": "active",
        "address": "23 Malone St SE",
        "featureid": null
      },
      "geometry": {
        "type": "Point",
        "coordinates": [
          -84.582361507971,
          33.564193823684
        ]
      }
    },
    {
      "type": "Feature",
      "properties": {
        "location": "Wolf Creek Library",
        "objectid": "767",
        "precinct": "SC20",
        "proposal": "14/16",
        "status": "approved",
        "retirestatus": "active",
        "address": "3100 Enon Rd Sw",
        "featureid": null
      },
      "geometry": {
        "type": "Point",
        "coordinates": [
          -84.574605742462,
          33.672712209988
        ]
      }
    },
    {
      "type": "Feature",
      "properties": {
        "location": "Butler Street Baptist Church",
        "objectid": "907",
        "precinct": "06F",
        "proposal": "10/18",
        "status": "approved",
        "retirestatus": "active",
        "address": "315 Ralph Mcgill Blvd",
        "featureid": null
      },
      "geometry": {
        "type": "Point",
        "coordinates": [
          -84.377466816831,
          33.763745611176
        ]
      }
    },
    {
      "type": "Feature",
      "properties": {
        "location": "Banneker High School",
        "objectid": "794",
        "precinct": "SC08H",
        "proposal": "2/17",
        "status": "approved",
        "retirestatus": "active",
        "address": "6015 Feldwood Rd",
        "featureid": null
      },
      "geometry": {
        "type": "Point",
        "coordinates": [
          -84.517019909117,
          33.592812986385
        ]
      }
    },
    {
      "type": "Feature",
      "properties": {
        "location": "Bear Creek Middle School",
        "objectid": "648",
        "precinct": "SC07B",
        "proposal": "33/14",
        "status": "approved",
        "retirestatus": "active",
        "address": "7415 Herndon Rd",
        "featureid": null
      },
      "geometry": {
        "type": "Point",
        "coordinates": [
          -84.624199595377,
          33.556956527092
        ]
      }
    },
    {
      "type": "Feature",
      "properties": {
        "location": "Creel Park",
        "objectid": "928",
        "precinct": "SC11A",
        "proposal": "24/18",
        "status": "approved",
        "retirestatus": "active",
        "address": "2775 Creel Road",
        "featureid": null
      },
      "geometry": {
        "type": "Point",
        "coordinates": [
          -84.483238862159,
          33.56713786075
        ]
      }
    },
    {
      "type": "Feature",
      "properties": {
        "location": "Abernathy Arts Center",
        "objectid": "1062",
        "precinct": "SS18A",
        "proposal": "39/20",
        "status": "approved",
        "retirestatus": "active",
        "address": "254 Johnson Ferry Rd",
        "featureid": null
      },
      "geometry": {
        "type": "Point",
        "coordinates": [
          -84.391520156575,
          33.935126030052
        ]
      }
    },
    {
      "type": "Feature",
      "properties": {
        "location": "Cliftondale Community House",
        "objectid": "440",
        "precinct": "SC05A",
        "proposal": "104/12R",
        "status": "approved",
        "retirestatus": "active",
        "address": "4645 Butner Rd",
        "featureid": null
      },
      "geometry": {
        "type": "Point",
        "coordinates": [
          -84.597310833246,
          33.651170793906
        ]
      }
    },
    {
      "type": "Feature",
      "properties": {
        "location": "New Life Presbyterian Church",
        "objectid": "803",
        "precinct": "SC23A",
        "proposal": "6/17",
        "status": "approved",
        "retirestatus": "active",
        "address": "6600 Old National Hwy",
        "featureid": null
      },
      "geometry": {
        "type": "Point",
        "coordinates": [
          -84.468781180306,
          33.574782319881
        ]
      }
    },
    {
      "type": "Feature",
      "properties": {
        "location": "Creel Park",
        "objectid": "929",
        "precinct": "SC11B",
        "proposal": "24/18",
        "status": "approved",
        "retirestatus": "active",
        "address": "2775 Creel Road",
        "featureid": null
      },
      "geometry": {
        "type": "Point",
        "coordinates": [
          -84.483238862159,
          33.56713786075
        ]
      }
    },
    {
      "type": "Feature",
      "properties": {
        "location": "North River Baptist Church",
        "objectid": "630",
        "precinct": "RW09",
        "proposal": "22/14, 31/15",
        "status": "approved",
        "retirestatus": "active",
        "address": "12090 Hardscrabble Road",
        "featureid": null
      },
      "geometry": {
        "type": "Point",
        "coordinates": [
          -84.363911571324,
          34.074462950745
        ]
      }
    },
    {
      "type": "Feature",
      "properties": {
        "location": "Taylor Road Middle School",
        "objectid": "1044",
        "precinct": "JC08",
        "proposal": "24/20",
        "status": "approved",
        "retirestatus": "active",
        "address": "5150 Taylor Road",
        "featureid": null
      },
      "geometry": {
        "type": "Point",
        "coordinates": [
          -84.210367043575,
          34.048217529277
        ]
      }
    },
    {
      "type": "Feature",
      "properties": {
        "location": "Banneker High School",
        "objectid": "634",
        "precinct": "SC08C",
        "proposal": "25/14",
        "status": "approved",
        "retirestatus": "active",
        "address": "6015 Feldwood Rd",
        "featureid": null
      },
      "geometry": {
        "type": "Point",
        "coordinates": [
          -84.517019909117,
          33.592812986385
        ]
      }
    },
    {
      "type": "Feature",
      "properties": {
        "location": "Ptree Presbyterian Church",
        "objectid": "908",
        "precinct": "07D",
        "proposal": "11/18",
        "status": "approved",
        "retirestatus": "active",
        "address": "3434 Roswell Rd",
        "featureid": null
      },
      "geometry": {
        "type": "Point",
        "coordinates": [
          -84.382718598759,
          33.847704679736
        ]
      }
    },
    {
      "type": "Feature",
      "properties": {
        "location": "New Prospect Elementary",
        "objectid": "946",
        "precinct": "AP01A",
        "proposal": "32/18",
        "status": "approved",
        "retirestatus": "active",
        "address": "3055 Kimball Bridge Rd",
        "featureid": null
      },
      "geometry": {
        "type": "Point",
        "coordinates": [
          -84.272098328499,
          34.0517041624
        ]
      }
    },
    {
      "type": "Feature",
      "properties": {
        "location": "North Annex",
        "objectid": "741",
        "precinct": "SS19B",
        "proposal": "36/15",
        "status": "approved",
        "retirestatus": "active",
        "address": "7741 Roswell Rd",
        "featureid": null
      },
      "geometry": {
        "type": "Point",
        "coordinates": [
          -84.362043139558,
          33.965596023275
        ]
      }
    },
    {
      "type": "Feature",
      "properties": {
        "location": "Banneker High School",
        "objectid": "637",
        "precinct": "SC08F",
        "proposal": "25/14",
        "status": "approved",
        "retirestatus": "active",
        "address": "6015 Feldwood Rd",
        "featureid": null
      },
      "geometry": {
        "type": "Point",
        "coordinates": [
          -84.517019909117,
          33.592812986385
        ]
      }
    },
    {
      "type": "Feature",
      "properties": {
        "location": "Autry Mill Middle School",
        "objectid": "240",
        "precinct": "JC13B",
        "proposal": null,
        "status": "approved",
        "retirestatus": "active",
        "address": "4110 Old Alabama Road",
        "featureid": null
      },
      "geometry": {
        "type": "Point",
        "coordinates": [
          -84.239377269789,
          34.017148850699
        ]
      }
    },
    {
      "type": "Feature",
      "properties": {
        "location": "North Annex",
        "objectid": "738",
        "precinct": "SS02A",
        "proposal": "36/15",
        "status": "approved",
        "retirestatus": "active",
        "address": "7741 Roswell Rd",
        "featureid": null
      },
      "geometry": {
        "type": "Point",
        "coordinates": [
          -84.362043139558,
          33.965596023275
        ]
      }
    },
    {
      "type": "Feature",
      "properties": {
        "location": "Feldwood Elem School",
        "objectid": "1031",
        "precinct": "UC01C",
        "proposal": "15/20",
        "status": "approved",
        "retirestatus": "active",
        "address": "5790 Feldwood Rd",
        "featureid": null
      },
      "geometry": {
        "type": "Point",
        "coordinates": [
          -84.515257782311,
          33.598217257549
        ]
      }
    },
    {
      "type": "Feature",
      "properties": {
        "location": "St James Methodist Ch",
        "objectid": "294",
        "precinct": "07B",
        "proposal": null,
        "status": "approved",
        "retirestatus": "active",
        "address": "4400 Peachtree Dunwoody Rd",
        "featureid": null
      },
      "geometry": {
        "type": "Point",
        "coordinates": [
          -84.358101826452,
          33.874718224649
        ]
      }
    },
    {
      "type": "Feature",
      "properties": {
        "location": "S L Lewis Elementary School",
        "objectid": "957",
        "precinct": "SC29A",
        "proposal": "9/19",
        "status": "approved",
        "retirestatus": "active",
        "address": "6201 Connell Road",
        "featureid": null
      },
      "geometry": {
        "type": "Point",
        "coordinates": [
          -84.502249693277,
          33.576270218623
        ]
      }
    },
    {
      "type": "Feature",
      "properties": {
        "location": "Alpharetta High School",
        "objectid": "840",
        "precinct": "AP12B",
        "proposal": "26/17",
        "status": "approved",
        "retirestatus": "active",
        "address": "3595 Webb Bridge Rd",
        "featureid": null
      },
      "geometry": {
        "type": "Point",
        "coordinates": [
          -84.254761377836,
          34.077950061662
        ]
      }
    },
    {
      "type": "Feature",
      "properties": {
        "location": "Findley Oaks Elementary School",
        "objectid": "772",
        "precinct": "JC03B",
        "proposal": "22/16",
        "status": "approved",
        "retirestatus": "active",
        "address": "5880 Findley Chase Drive",
        "featureid": null
      },
      "geometry": {
        "type": "Point",
        "coordinates": [
          -84.186137063128,
          34.060696241763
        ]
      }
    },
    {
      "type": "Feature",
      "properties": {
        "location": "St Paul's Episcopal Church",
        "objectid": "162",
        "precinct": "10G",
        "proposal": null,
        "status": "approved",
        "retirestatus": "active",
        "address": "306 Peyton Rd",
        "featureid": null
      },
      "geometry": {
        "type": "Point",
        "coordinates": [
          -84.476569540009,
          33.747485340451
        ]
      }
    },
    {
      "type": "Feature",
      "properties": {
        "location": "Greater Bethany Baptist Church",
        "objectid": "450",
        "precinct": "03E",
        "proposal": "11/12",
        "status": "approved",
        "retirestatus": "active",
        "address": "786 Thurmond Street",
        "featureid": null
      },
      "geometry": {
        "type": "Point",
        "coordinates": [
          -84.413119807497,
          33.760300546466
        ]
      }
    },
    {
      "type": "Feature",
      "properties": {
        "location": "Continental Colony Elementary School",
        "objectid": "337",
        "precinct": "11J",
        "proposal": "20/10, 09/11",
        "status": "approved",
        "retirestatus": "active",
        "address": "3181 Hogan Rd",
        "featureid": null
      },
      "geometry": {
        "type": "Point",
        "coordinates": [
          -84.492295985917,
          33.678642408657
        ]
      }
    },
    {
      "type": "Feature",
      "properties": {
        "location": "College Park Auditorium",
        "objectid": "458",
        "precinct": "CP011",
        "proposal": "289/12R",
        "status": "approved",
        "retirestatus": "active",
        "address": "3631 Main Street",
        "featureid": null
      },
      "geometry": {
        "type": "Point",
        "coordinates": [
          -84.449267388548,
          33.655798123373
        ]
      }
    },
    {
      "type": "Feature",
      "properties": {
        "location": "Mountain Park Community Center",
        "objectid": "743",
        "precinct": "MP01",
        "proposal": "2/16",
        "status": "approved",
        "retirestatus": "active",
        "address": "100 Lakeshore Dr",
        "featureid": null
      },
      "geometry": {
        "type": "Point",
        "coordinates": [
          -84.415732984447,
          34.082795501073
        ]
      }
    },
    {
      "type": "Feature",
      "properties": {
        "location": "Lang-Carson Recreation Center",
        "objectid": "430",
        "precinct": "05A1",
        "proposal": "99/12R",
        "status": "approved",
        "retirestatus": "active",
        "address": "100 Flat Shoals Ave",
        "featureid": null
      },
      "geometry": {
        "type": "Point",
        "coordinates": [
          -84.355513764858,
          33.752322176108
        ]
      }
    },
    {
      "type": "Feature",
      "properties": {
        "location": "Feldwood Elem School",
        "objectid": "1030",
        "precinct": "UC01B",
        "proposal": "15/20",
        "status": "approved",
        "retirestatus": "active",
        "address": "5790 Feldwood Rd",
        "featureid": null
      },
      "geometry": {
        "type": "Point",
        "coordinates": [
          -84.515257782311,
          33.598217257549
        ]
      }
    },
    {
      "type": "Feature",
      "properties": {
        "location": "Peachtree Hills Recreation",
        "objectid": "601",
        "precinct": "06I",
        "proposal": "8/14",
        "status": "approved",
        "retirestatus": "active",
        "address": "308 Peachtree Hills Ave Ne",
        "featureid": null
      },
      "geometry": {
        "type": "Point",
        "coordinates": [
          -84.37770855825,
          33.818209138861
        ]
      }
    },
    {
      "type": "Feature",
      "properties": {
        "location": "Epworth United Methodist Church",
        "objectid": "575",
        "precinct": "06P",
        "proposal": null,
        "status": "approved",
        "retirestatus": "active",
        "address": "1561 Mclendon Ave Ne",
        "featureid": null
      },
      "geometry": {
        "type": "Point",
        "coordinates": [
          -84.335733572633,
          33.764934905261
        ]
      }
    },
    {
      "type": "Feature",
      "properties": {
        "location": "Christian City - Sparks Auditorium",
        "objectid": "859",
        "precinct": "UC033",
        "proposal": "37/17",
        "status": "approved",
        "retirestatus": "active",
        "address": "7290 Lester Rd",
        "featureid": null
      },
      "geometry": {
        "type": "Point",
        "coordinates": [
          -84.524301315162,
          33.555176921099
        ]
      }
    },
    {
      "type": "Feature",
      "properties": {
        "location": "Burdett Park Gym",
        "objectid": "401",
        "precinct": "SC09B",
        "proposal": "28/12R",
        "status": "approved",
        "retirestatus": "active",
        "address": "2945 Burdett Rd",
        "featureid": null
      },
      "geometry": {
        "type": "Point",
        "coordinates": [
          -84.483670688748,
          33.595408877818
        ]
      }
    },
    {
      "type": "Feature",
      "properties": {
        "location": "Wolf Creek Library",
        "objectid": "802",
        "precinct": "SC01C",
        "proposal": "5/17",
        "status": "approved",
        "retirestatus": "active",
        "address": "3100 Enon Rd Sw",
        "featureid": null
      },
      "geometry": {
        "type": "Point",
        "coordinates": [
          -84.574605742462,
          33.672712209988
        ]
      }
    },
    {
      "type": "Feature",
      "properties": {
        "location": "Perkerson Park Rec Center",
        "objectid": "709",
        "precinct": "12D",
        "proposal": "18/15",
        "status": "approved",
        "retirestatus": "active",
        "address": "770 Deckner Ave",
        "featureid": null
      },
      "geometry": {
        "type": "Point",
        "coordinates": [
          -84.4128532079,
          33.713666988341
        ]
      }
    },
    {
      "type": "Feature",
      "properties": {
        "location": "Cleveland Avenue School",
        "objectid": "918",
        "precinct": "12E2",
        "proposal": "17/18",
        "status": "approved",
        "retirestatus": "active",
        "address": "2672 Old Hapeville Rd",
        "featureid": null
      },
      "geometry": {
        "type": "Point",
        "coordinates": [
          -84.393988520394,
          33.682425546665
        ]
      }
    },
    {
      "type": "Feature",
      "properties": {
        "location": "Banneker High School",
        "objectid": "632",
        "precinct": "SC08A",
        "proposal": "25/14",
        "status": "approved",
        "retirestatus": "active",
        "address": "6015 Feldwood Rd",
        "featureid": null
      },
      "geometry": {
        "type": "Point",
        "coordinates": [
          -84.517019909117,
          33.592812986385
        ]
      }
    },
    {
      "type": "Feature",
      "properties": {
        "location": "St. Stephens Miss. Baptist Church",
        "objectid": "790",
        "precinct": "EP03A",
        "proposal": "30/16",
        "status": "approved",
        "retirestatus": "active",
        "address": "2670 Hogan Rd",
        "featureid": null
      },
      "geometry": {
        "type": "Point",
        "coordinates": [
          -84.476277151499,
          33.677733085215
        ]
      }
    },
    {
      "type": "Feature",
      "properties": {
        "location": "Morningside Baptist Church Gym",
        "objectid": "142",
        "precinct": "06D",
        "proposal": "12/16",
        "status": "approved",
        "retirestatus": "active",
        "address": "1700 Piedmont Road",
        "featureid": null
      },
      "geometry": {
        "type": "Point",
        "coordinates": [
          -84.367756714802,
          33.801362604779
        ]
      }
    },
    {
      "type": "Feature",
      "properties": {
        "location": "New Life Presbyterian Church",
        "objectid": "804",
        "precinct": "SC23C",
        "proposal": "6/17",
        "status": "approved",
        "retirestatus": "active",
        "address": "6600 Old National Hwy",
        "featureid": null
      },
      "geometry": {
        "type": "Point",
        "coordinates": [
          -84.468781180306,
          33.574782319881
        ]
      }
    },
    {
      "type": "Feature",
      "properties": {
        "location": "Cleveland Avenue School",
        "objectid": "768",
        "precinct": "12H1",
        "proposal": "19/16",
        "status": "approved",
        "retirestatus": "active",
        "address": "2672 Old Hapeville Rd",
        "featureid": null
      },
      "geometry": {
        "type": "Point",
        "coordinates": [
          -84.393988520394,
          33.682425546665
        ]
      }
    },
    {
      "type": "Feature",
      "properties": {
        "location": "College Park Auditorium",
        "objectid": "3",
        "precinct": "CP01B",
        "proposal": null,
        "status": "approved",
        "retirestatus": "active",
        "address": "3631 Main Street",
        "featureid": null
      },
      "geometry": {
        "type": "Point",
        "coordinates": [
          -84.449267388548,
          33.655798123373
        ]
      }
    },
    {
      "type": "Feature",
      "properties": {
        "location": "Morris Brandon Primary Ctr. School",
        "objectid": "151",
        "precinct": "08E",
        "proposal": "21/08, 05/10",
        "status": "approved",
        "retirestatus": "active",
        "address": "2845 Margaret Mitchell Dr",
        "featureid": null
      },
      "geometry": {
        "type": "Point",
        "coordinates": [
          -84.434703709565,
          33.83389574717
        ]
      }
    },
    {
      "type": "Feature",
      "properties": {
        "location": "Welcome All Park, Community House",
        "objectid": "649",
        "precinct": "SC17A",
        "proposal": "34/14, 41/14",
        "status": "approved",
        "retirestatus": "active",
        "address": "4255 Will Lee Road",
        "featureid": null
      },
      "geometry": {
        "type": "Point",
        "coordinates": [
          -84.527539176252,
          33.631029690121
        ]
      }
    },
    {
      "type": "Feature",
      "properties": {
        "location": "Peachtree Christian Church",
        "objectid": "671",
        "precinct": "06L1",
        "proposal": "46/14",
        "status": "approved",
        "retirestatus": "active",
        "address": "1580 Peachtree Street Nw",
        "featureid": null
      },
      "geometry": {
        "type": "Point",
        "coordinates": [
          -84.389463176786,
          33.797208894837
        ]
      }
    },
    {
      "type": "Feature",
      "properties": {
        "location": "Lebanon Church",
        "objectid": "643",
        "precinct": "RW16",
        "proposal": "24/14",
        "status": "approved",
        "retirestatus": "active",
        "address": "11250 Crabapple Road",
        "featureid": null
      },
      "geometry": {
        "type": "Point",
        "coordinates": [
          -84.363662231504,
          34.057515969066
        ]
      }
    },
    {
      "type": "Feature",
      "properties": {
        "location": "Wills Recreation Center",
        "objectid": "952",
        "precinct": "AP021",
        "proposal": "5/19",
        "status": "approved",
        "retirestatus": "active",
        "address": "11925 Wills Rd",
        "featureid": null
      },
      "geometry": {
        "type": "Point",
        "coordinates": [
          -84.311328474887,
          34.071376912046
        ]
      }
    },
    {
      "type": "Feature",
      "properties": {
        "location": "Mary Lin Elementary School",
        "objectid": "896",
        "precinct": "06M",
        "proposal": null,
        "status": "approved",
        "retirestatus": "active",
        "address": "586 Candler Park Dr",
        "featureid": null
      },
      "geometry": {
        "type": "Point",
        "coordinates": [
          -84.340112067333,
          33.769751620452
        ]
      }
    },
    {
      "type": "Feature",
      "properties": {
        "location": "Temple Emanuel",
        "objectid": "774",
        "precinct": "SS17",
        "proposal": "24/16",
        "status": "approved",
        "retirestatus": "active",
        "address": "1580 Spalding Dr",
        "featureid": null
      },
      "geometry": {
        "type": "Point",
        "coordinates": [
          -84.333317922715,
          33.974243346763
        ]
      }
    },
    {
      "type": "Feature",
      "properties": {
        "location": "Peachtree Christian Church",
        "objectid": "669",
        "precinct": "02W",
        "proposal": "46/14",
        "status": "approved",
        "retirestatus": "active",
        "address": "1580 Peachtree Street Nw",
        "featureid": null
      },
      "geometry": {
        "type": "Point",
        "coordinates": [
          -84.389463176786,
          33.797208894837
        ]
      }
    },
    {
      "type": "Feature",
      "properties": {
        "location": "Chattahoochee Hills City Hall",
        "objectid": "609",
        "precinct": "CH04A",
        "proposal": "13/14",
        "status": "approved",
        "retirestatus": "active",
        "address": "6505 Rico Rd",
        "featureid": null
      },
      "geometry": {
        "type": "Point",
        "coordinates": [
          -84.769076353898,
          33.578938311747
        ]
      }
    },
    {
      "type": "Feature",
      "properties": {
        "location": "Camp Truitt Senior Center",
        "objectid": "617",
        "precinct": "CP051",
        "proposal": "14/14",
        "status": "approved",
        "retirestatus": "active",
        "address": "4320 Herschel Rd",
        "featureid": null
      },
      "geometry": {
        "type": "Point",
        "coordinates": [
          -84.471947246677,
          33.637606082988
        ]
      }
    },
    {
      "type": "Feature",
      "properties": {
        "location": "Windward Fire Station",
        "objectid": "67",
        "precinct": "AP05",
        "proposal": null,
        "status": "approved",
        "retirestatus": "active",
        "address": "3070 Market Place",
        "featureid": null
      },
      "geometry": {
        "type": "Point",
        "coordinates": [
          -84.236077288738,
          34.092122735316
        ]
      }
    },
    {
      "type": "Feature",
      "properties": {
        "location": "New Life Presbyterian Church",
        "objectid": "410",
        "precinct": "SC23B",
        "proposal": "32/12R",
        "status": "approved",
        "retirestatus": "active",
        "address": "6600 Old National Hwy",
        "featureid": null
      },
      "geometry": {
        "type": "Point",
        "coordinates": [
          -84.468781180306,
          33.574782319881
        ]
      }
    },
    {
      "type": "Feature",
      "properties": {
        "location": "Feldwood Elem School",
        "objectid": "1032",
        "precinct": "UC01D",
        "proposal": "15/20",
        "status": "approved",
        "retirestatus": "active",
        "address": "5790 Feldwood Rd",
        "featureid": null
      },
      "geometry": {
        "type": "Point",
        "coordinates": [
          -84.515257782311,
          33.598217257549
        ]
      }
    },
    {
      "type": "Feature",
      "properties": {
        "location": "Welcome All Park, Community House",
        "objectid": "798",
        "precinct": "SC18C",
        "proposal": "4/17",
        "status": "approved",
        "retirestatus": "active",
        "address": "4255 Will Lee Road",
        "featureid": null
      },
      "geometry": {
        "type": "Point",
        "coordinates": [
          -84.527539176252,
          33.631029690121
        ]
      }
    },
    {
      "type": "Feature",
      "properties": {
        "location": "Butler Street Baptist Church",
        "objectid": "508",
        "precinct": "05J",
        "proposal": "04/13R",
        "status": "approved",
        "retirestatus": "active",
        "address": "315 Ralph Mcgill Blvd",
        "featureid": null
      },
      "geometry": {
        "type": "Point",
        "coordinates": [
          -84.377466816831,
          33.763745611176
        ]
      }
    },
    {
      "type": "Feature",
      "properties": {
        "location": "Woodland Elem. School",
        "objectid": "970",
        "precinct": "SS20",
        "proposal": "20/19",
        "status": "approved",
        "retirestatus": "active",
        "address": "1130 Spalding Dr",
        "featureid": null
      },
      "geometry": {
        "type": "Point",
        "coordinates": [
          -84.350114028411,
          33.959953056966
        ]
      }
    },
    {
      "type": "Feature",
      "properties": {
        "location": "Hopewell Baptist Church",
        "objectid": "396",
        "precinct": "ML07A",
        "proposal": "26/12R",
        "status": "approved",
        "retirestatus": "active",
        "address": "15730 Hopewell Rd",
        "featureid": null
      },
      "geometry": {
        "type": "Point",
        "coordinates": [
          -84.283617327879,
          34.163934528914
        ]
      }
    },
    {
      "type": "Feature",
      "properties": {
        "location": "Chattahoochee Hills City Hall",
        "objectid": "608",
        "precinct": "CH03",
        "proposal": "13/14",
        "status": "approved",
        "retirestatus": "active",
        "address": "6505 Rico Rd",
        "featureid": null
      },
      "geometry": {
        "type": "Point",
        "coordinates": [
          -84.769076353898,
          33.578938311747
        ]
      }
    },
    {
      "type": "Feature",
      "properties": {
        "location": "Liberty Baptist Church",
        "objectid": "591",
        "precinct": "01I",
        "proposal": "1/14",
        "status": "approved",
        "retirestatus": "active",
        "address": "395 Chamberlain St Se",
        "featureid": null
      },
      "geometry": {
        "type": "Point",
        "coordinates": [
          -84.374501965309,
          33.753484330697
        ]
      }
    },
    {
      "type": "Feature",
      "properties": {
        "location": "Johns Creek Environmental Campus",
        "objectid": "645",
        "precinct": "JC19",
        "proposal": "32/14",
        "status": "approved",
        "retirestatus": "active",
        "address": "8100 Holcomb Bridge Rd",
        "featureid": null
      },
      "geometry": {
        "type": "Point",
        "coordinates": [
          -84.266692023534,
          33.977343821315
        ]
      }
    },
    {
      "type": "Feature",
      "properties": {
        "location": "Fire Station No. 17",
        "objectid": "29",
        "precinct": "SC04",
        "proposal": null,
        "status": "approved",
        "retirestatus": "active",
        "address": "8675 Ridge Rd",
        "featureid": null
      },
      "geometry": {
        "type": "Point",
        "coordinates": [
          -84.670160715046,
          33.619477047507
        ]
      }
    },
    {
      "type": "Feature",
      "properties": {
        "location": "Harvest Rain Church",
        "objectid": "886",
        "precinct": "FA01C",
        "proposal": "58/17, 2/18",
        "status": "approved",
        "retirestatus": "proposed",
        "address": "8567 Bohannon Rd",
        "featureid": null
      },
      "geometry": {
        "type": "Point",
        "coordinates": [
          -84.58624979145,
          33.525099614403
        ]
      }
    },
    {
      "type": "Feature",
      "properties": {
        "location": "Banneker High School",
        "objectid": "635",
        "precinct": "SC08D",
        "proposal": "25/14",
        "status": "approved",
        "retirestatus": "active",
        "address": "6015 Feldwood Rd",
        "featureid": null
      },
      "geometry": {
        "type": "Point",
        "coordinates": [
          -84.517019909117,
          33.592812986385
        ]
      }
    },
    {
      "type": "Feature",
      "properties": {
        "location": "Liberty Baptist Church",
        "objectid": "522",
        "precinct": "01H",
        "proposal": "14/13R",
        "status": "approved",
        "retirestatus": "active",
        "address": "395 Chamberlain St Se",
        "featureid": null
      },
      "geometry": {
        "type": "Point",
        "coordinates": [
          -84.374501965309,
          33.753484330697
        ]
      }
    },
    {
      "type": "Feature",
      "properties": {
        "location": "Mt Vernon Baptist Church",
        "objectid": "487",
        "precinct": "SS09A",
        "proposal": "4/13",
        "status": "approved",
        "retirestatus": "active",
        "address": "850 Mt Vernon Hwy Nw",
        "featureid": null
      },
      "geometry": {
        "type": "Point",
        "coordinates": [
          -84.414798875657,
          33.906802708062
        ]
      }
    },
    {
      "type": "Feature",
      "properties": {
        "location": "Taylor Road Middle School",
        "objectid": "1024",
        "precinct": "JC09",
        "proposal": "10/20",
        "status": "approved",
        "retirestatus": "active",
        "address": "5150 Taylor Road",
        "featureid": null
      },
      "geometry": {
        "type": "Point",
        "coordinates": [
          -84.210367043575,
          34.048217529277
        ]
      }
    },
    {
      "type": "Feature",
      "properties": {
        "location": "Prince Of Peace Lutheran Church",
        "objectid": "626",
        "precinct": "JC16",
        "proposal": "20/14, 32/15",
        "status": "approved",
        "retirestatus": "active",
        "address": "10250 Haynes Bridge Road",
        "featureid": null
      },
      "geometry": {
        "type": "Point",
        "coordinates": [
          -84.269978187379,
          34.02927503212
        ]
      }
    },
    {
      "type": "Feature",
      "properties": {
        "location": "Christian City - Sparks Auditorium",
        "objectid": "863",
        "precinct": "SC21A",
        "proposal": "37/17",
        "status": "approved",
        "retirestatus": "active",
        "address": "7290 Lester Rd",
        "featureid": null
      },
      "geometry": {
        "type": "Point",
        "coordinates": [
          -84.524301315162,
          33.555176921099
        ]
      }
    },
    {
      "type": "Feature",
      "properties": {
        "location": "Hammond Park Gym",
        "objectid": "303",
        "precinct": "SS08C",
        "proposal": null,
        "status": "approved",
        "retirestatus": "active",
        "address": "705 Hammond Drive Ne",
        "featureid": null
      },
      "geometry": {
        "type": "Point",
        "coordinates": [
          -84.361400828697,
          33.918789879368
        ]
      }
    },
    {
      "type": "Feature",
      "properties": {
        "location": "Palmetto Library",
        "objectid": "728",
        "precinct": "PA01",
        "proposal": "27/15",
        "status": "approved",
        "retirestatus": "active",
        "address": "9111 Cascade Palmetto Hwy",
        "featureid": null
      },
      "geometry": {
        "type": "Point",
        "coordinates": [
          -84.66405224498,
          33.530499538161
        ]
      }
    },
    {
      "type": "Feature",
      "properties": {
        "location": "William Walker Recreation Center",
        "objectid": "1021",
        "precinct": "11P",
        "proposal": "8/20",
        "status": "approved",
        "retirestatus": "active",
        "address": "2405 Fairburn Rd Sw",
        "featureid": null
      },
      "geometry": {
        "type": "Point",
        "coordinates": [
          -84.511949101463,
          33.689396121493
        ]
      }
    },
    {
      "type": "Feature",
      "properties": {
        "location": "Haynes Bridge Middle School",
        "objectid": "944",
        "precinct": "AP01D",
        "proposal": "31/18",
        "status": "approved",
        "retirestatus": "active",
        "address": "10665 Haynes Bridge Rd",
        "featureid": null
      },
      "geometry": {
        "type": "Point",
        "coordinates": [
          -84.282631255906,
          34.039832635344
        ]
      }
    },
    {
      "type": "Feature",
      "properties": {
        "location": "Paul L. Dunbar School",
        "objectid": "509",
        "precinct": "04I",
        "proposal": "05/13R",
        "status": "approved",
        "retirestatus": "active",
        "address": "500 Whitehall Terrace Sw",
        "featureid": null
      },
      "geometry": {
        "type": "Point",
        "coordinates": [
          -84.401586355296,
          33.741472958888
        ]
      }
    },
    {
      "type": "Feature",
      "properties": {
        "location": "Saint Philips Ame Church",
        "objectid": "313",
        "precinct": "05I",
        "proposal": null,
        "status": "approved",
        "retirestatus": "active",
        "address": "240 Candler Rd Se",
        "featureid": null
      },
      "geometry": {
        "type": "Point",
        "coordinates": [
          -84.291479727908,
          33.74670569359
        ]
      }
    },
    {
      "type": "Feature",
      "properties": {
        "location": "Banneker High School",
        "objectid": "633",
        "precinct": "SC08B",
        "proposal": "25/14",
        "status": "approved",
        "retirestatus": "active",
        "address": "6015 Feldwood Rd",
        "featureid": null
      },
      "geometry": {
        "type": "Point",
        "coordinates": [
          -84.517019909117,
          33.592812986385
        ]
      }
    },
    {
      "type": "Feature",
      "properties": {
        "location": "St Paul's Episcopal Church",
        "objectid": "869",
        "precinct": "10H1",
        "proposal": "45/17",
        "status": "approved",
        "retirestatus": "active",
        "address": "306 Peyton Rd",
        "featureid": null
      },
      "geometry": {
        "type": "Point",
        "coordinates": [
          -84.476569540009,
          33.747485340451
        ]
      }
    },
    {
      "type": "Feature",
      "properties": {
        "location": "1st Baptist Ch. Sandy Springs",
        "objectid": "469",
        "precinct": "SS29B",
        "proposal": "294/12R",
        "status": "approved",
        "retirestatus": "active",
        "address": "650 Mt Vernon Hwy",
        "featureid": null
      },
      "geometry": {
        "type": "Point",
        "coordinates": [
          -84.364843564888,
          33.927882674183
        ]
      }
    },
    {
      "type": "Feature",
      "properties": {
        "location": "Cleveland Avenue School",
        "objectid": "769",
        "precinct": "12H2",
        "proposal": "19/16",
        "status": "approved",
        "retirestatus": "active",
        "address": "2672 Old Hapeville Rd",
        "featureid": null
      },
      "geometry": {
        "type": "Point",
        "coordinates": [
          -84.393988520394,
          33.682425546665
        ]
      }
    },
    {
      "type": "Feature",
      "properties": {
        "location": "Ridgeview Middle School",
        "objectid": "102",
        "precinct": "SS12",
        "proposal": "26/08, 31/08",
        "status": "approved",
        "retirestatus": "active",
        "address": "5340 South Trimble Rd",
        "featureid": null
      },
      "geometry": {
        "type": "Point",
        "coordinates": [
          -84.3588359148,
          33.897368726042
        ]
      }
    },
    {
      "type": "Feature",
      "properties": {
        "location": "Collier Park Recreation Center",
        "objectid": "960",
        "precinct": "10P",
        "proposal": "12/19",
        "status": "approved",
        "retirestatus": "active",
        "address": "3691 Collier Dr NW",
        "featureid": null
      },
      "geometry": {
        "type": "Point",
        "coordinates": [
          -84.506830984584,
          33.768823981571
        ]
      }
    },
    {
      "type": "Feature",
      "properties": {
        "location": "Cathedral Of Saint Philip",
        "objectid": "1020",
        "precinct": "08G",
        "proposal": "6/20",
        "status": "approved",
        "retirestatus": "active",
        "address": "2744 Peachtree Rd Nw",
        "featureid": null
      },
      "geometry": {
        "type": "Point",
        "coordinates": [
          -84.386057714063,
          33.831152614202
        ]
      }
    },
    {
      "type": "Feature",
      "properties": {
        "location": "Mt Vernon Baptist Church",
        "objectid": "488",
        "precinct": "SS09B",
        "proposal": "4/13",
        "status": "approved",
        "retirestatus": "active",
        "address": "850 Mt Vernon Hwy Nw",
        "featureid": null
      },
      "geometry": {
        "type": "Point",
        "coordinates": [
          -84.414798875657,
          33.906802708062
        ]
      }
    },
    {
      "type": "Feature",
      "properties": {
        "location": "Hillside Elem School",
        "objectid": "1027",
        "precinct": "RW22A",
        "proposal": "13/20",
        "status": "approved",
        "retirestatus": "active",
        "address": "9250 Scott Rd",
        "featureid": null
      },
      "geometry": {
        "type": "Point",
        "coordinates": [
          -84.296027922087,
          34.009948066931
        ]
      }
    },
    {
      "type": "Feature",
      "properties": {
        "location": "St. Stephens Miss. Baptist Church",
        "objectid": "791",
        "precinct": "EP03B",
        "proposal": "30/16",
        "status": "approved",
        "retirestatus": "active",
        "address": "2670 Hogan Rd",
        "featureid": null
      },
      "geometry": {
        "type": "Point",
        "coordinates": [
          -84.476277151499,
          33.677733085215
        ]
      }
    },
    {
      "type": "Feature",
      "properties": {
        "location": "Welcome All Park, Community House",
        "objectid": "651",
        "precinct": "SC17C",
        "proposal": "34/14, 41/14",
        "status": "approved",
        "retirestatus": "active",
        "address": "4255 Will Lee Road",
        "featureid": null
      },
      "geometry": {
        "type": "Point",
        "coordinates": [
          -84.527539176252,
          33.631029690121
        ]
      }
    },
    {
      "type": "Feature",
      "properties": {
        "location": "Camp Truitt Senior Center",
        "objectid": "588",
        "precinct": "CP07A",
        "proposal": "8/14R",
        "status": "approved",
        "retirestatus": "active",
        "address": "4320 Herschel Rd",
        "featureid": null
      },
      "geometry": {
        "type": "Point",
        "coordinates": [
          -84.471947246677,
          33.637606082988
        ]
      }
    },
    {
      "type": "Feature",
      "properties": {
        "location": "Johns Creek High School",
        "objectid": "1025",
        "precinct": "JC11",
        "proposal": "11/20",
        "status": "approved",
        "retirestatus": "active",
        "address": "5575 State Bridge Rd",
        "featureid": null
      },
      "geometry": {
        "type": "Point",
        "coordinates": [
          -84.196023009678,
          34.022428668609
        ]
      }
    },
    {
      "type": "Feature",
      "properties": {
        "location": "Hammond Park Gym",
        "objectid": "558",
        "precinct": "SS08D",
        "proposal": "1/13RS",
        "status": "approved",
        "retirestatus": "active",
        "address": "705 Hammond Drive Ne",
        "featureid": null
      },
      "geometry": {
        "type": "Point",
        "coordinates": [
          -84.361400828697,
          33.918789879368
        ]
      }
    },
    {
      "type": "Feature",
      "properties": {
        "location": "Dolvin Elementary School",
        "objectid": "932",
        "precinct": "JC14",
        "proposal": "27/18",
        "status": "approved",
        "retirestatus": "active",
        "address": "10495 Jones Bridge Road",
        "featureid": null
      },
      "geometry": {
        "type": "Point",
        "coordinates": [
          -84.233629691314,
          34.037371181899
        ]
      }
    },
    {
      "type": "Feature",
      "properties": {
        "location": "Grove Park Recreation Center",
        "objectid": "721",
        "precinct": "03H",
        "proposal": "23/15",
        "status": "approved",
        "retirestatus": "active",
        "address": "750 Francis Pl Nw",
        "featureid": null
      },
      "geometry": {
        "type": "Point",
        "coordinates": [
          -84.438547375286,
          33.775113026089
        ]
      }
    },
    {
      "type": "Feature",
      "properties": {
        "location": "Woodland Elem. School",
        "objectid": "1028",
        "precinct": "SS26",
        "proposal": "14/20",
        "status": "approved",
        "retirestatus": "active",
        "address": "1130 Spalding Dr",
        "featureid": null
      },
      "geometry": {
        "type": "Point",
        "coordinates": [
          -84.350114028411,
          33.959953056966
        ]
      }
    },
    {
      "type": "Feature",
      "properties": {
        "location": "The Enon Church",
        "objectid": "779",
        "precinct": "SC15",
        "proposal": "27/16",
        "status": "approved",
        "retirestatus": "active",
        "address": "3550 Enon Rd",
        "featureid": null
      },
      "geometry": {
        "type": "Point",
        "coordinates": [
          -84.591382124974,
          33.657831765946
        ]
      }
    },
    {
      "type": "Feature",
      "properties": {
        "location": "Manning Oaks Elementary School",
        "objectid": "961",
        "precinct": "ML06A",
        "proposal": "13/19",
        "status": "approved",
        "retirestatus": "active",
        "address": "405 Cumming St",
        "featureid": null
      },
      "geometry": {
        "type": "Point",
        "coordinates": [
          -84.276398484069,
          34.084321228606
        ]
      }
    },
    {
      "type": "Feature",
      "properties": {
        "location": "North Annex",
        "objectid": "739",
        "precinct": "SS02B",
        "proposal": "36/15",
        "status": "approved",
        "retirestatus": "active",
        "address": "7741 Roswell Rd",
        "featureid": null
      },
      "geometry": {
        "type": "Point",
        "coordinates": [
          -84.362043139558,
          33.965596023275
        ]
      }
    },